[
    {
      "ID": "HULKK",
      "Name": "HULKK",
      "LatDecimal": 39.96908056,
      "LongDecimal": -74.95443056,
      "AltitudeMSL": 8500,
      "AltitudeAGL": null
    },
    {
      "ID": "RBV",
      "Name": "ROBBINSVILLE",
      "LatDecimal": 40.2024,
      "LongDecimal": -74.495025,
      "AltitudeMSL": 8500,
      "AltitudeAGL": null
    },
    {
      "ID": "LAURN",
      "Name": "LAURN",
      "LatDecimal": 40.55161111,
      "LongDecimal": -74.12046389,
      "AltitudeMSL": 8500,
      "AltitudeAGL": null
    },
    {
      "ID": "JFK",
      "Name": "KENNEDY",
      "LatDecimal": 40.63288333,
      "LongDecimal": -73.77139167,
      "AltitudeMSL": 8500,
      "AltitudeAGL": null
    },
    {
      "ID": "KBOS",
      "Name": "GENERAL EDWARD LAWRENCE LOGAN",
      "LatDecimal": 42.36294444,
      "LongDecimal": -71.00638889,
      "AltitudeMSL": 8500,
      "AltitudeAGL": null
    }
  ]